City_ID,City,Lat,Lng,Max Temp,Humidity,Cloudiness,Wind Speed,Country,Date
0,bredasdorp,-34.5322,20.0403,17.39,80,55,2.72,ZA,1707364489
1,kingston,17.997,-76.7936,23.53,64,20,6.69,JM,1707363758
2,grytviken,-54.2811,-36.5092,8.77,67,100,5.0,GS,1707364489
3,zaozersk,69.4005,32.4476,-24.42,99,71,2.25,RU,1707364489
4,yellowknife,62.456,-114.3525,-15.88,84,100,2.06,CA,1707364490
5,colonia,50.9333,6.95,4.97,91,75,1.03,DE,1707364414
6,keflavik,64.0049,-22.5624,-3.76,68,0,6.69,IS,1707364490
7,kiunga,-6.1219,141.2906,32.56,50,94,2.59,PG,1707364491
8,luderitz,-26.6481,15.1594,17.71,74,94,4.87,NA,1707364491
9,usinsk,65.9939,57.5281,-9.4,90,99,2.68,RU,1707364491
10,lompoc,34.6391,-120.4579,10.99,77,100,5.14,US,1707364491
11,yurty,56.0498,97.6348,-12.57,93,97,1.25,RU,1707364491
12,polyarnyy,69.1989,33.4478,-22.91,100,88,3.67,RU,1707364491
13,darab,28.7519,54.5444,7.9,33,0,0.51,IR,1707364492
14,port-aux-francais,-49.35,70.2167,4.31,70,82,11.96,TF,1707364492
15,northam,51.0333,-4.2167,12.03,96,100,7.57,GB,1707364492
16,klyuchi,52.2667,79.1667,-5.33,83,11,4.75,RU,1707364492
17,al ghayzah,16.2079,52.176,21.5,34,5,3.16,YE,1707364492
18,adamstown,-25.066,-130.1015,22.32,79,100,3.27,PN,1707364493
19,ushuaia,-54.8,-68.3,7.81,76,75,3.6,AR,1707364493
20,laja,-37.2667,-72.7,13.99,50,100,1.85,CL,1707364493
21,hermanus,-34.4187,19.2345,17.11,80,73,3.55,ZA,1707364493
22,pitimbu,-7.4706,-34.8086,28.33,82,78,3.53,BR,1707364493
23,puerto natales,-51.7236,-72.4875,8.34,81,79,6.47,CL,1707364493
24,bethel,41.3712,-73.414,2.19,66,0,1.54,US,1707364494
25,frolovo,49.7713,43.6622,4.66,92,100,9.87,RU,1707364494
26,niamey,13.5137,2.1098,19.16,18,4,3.6,NE,1707364494
27,suntar,62.1444,117.6319,-27.22,97,97,1.03,RU,1707364494
28,port alfred,-33.5906,26.891,16.21,89,6,1.34,ZA,1707364494
29,san antonio de pale,-1.4014,5.6325,27.73,79,42,2.63,GQ,1707364494
30,mana,5.6592,-53.7767,25.51,80,66,4.28,GF,1707364494
31,blackmans bay,-43.0167,147.3167,23.62,55,1,5.01,AU,1707364494
32,odugattur,12.7667,78.9,27.72,38,82,0.57,IN,1707364495
33,arkhangel'sk,64.5401,40.5433,-29.94,76,20,0.0,RU,1707364468
34,edinburgh of the seven seas,-37.0676,-12.3116,17.08,68,100,2.95,SH,1707364495
35,iqaluit,63.7506,-68.5145,-20.15,59,20,6.69,CA,1707364495
36,enewetak,11.3474,162.3373,26.59,81,100,8.4,MH,1707364495
37,al minya,28.1099,30.7503,11.78,59,0,3.35,EG,1707364495
38,ust-nera,64.5667,143.2,-25.72,97,100,0.83,RU,1707364495
39,kerikeri,-35.2268,173.9474,24.31,63,17,3.28,NZ,1707364211
40,georgetown,5.4112,100.3354,30.96,70,20,4.12,MY,1707364495
41,la'ie,21.6477,-157.9253,26.98,73,9,5.36,US,1707364496
42,san patricio,28.017,-97.5169,20.97,82,94,6.78,US,1707364496
43,grand falls-windsor,48.9332,-55.6649,-14.81,99,71,1.51,CA,1707364441
44,port elizabeth,-33.918,25.5701,20.16,78,0,5.14,ZA,1707364496
45,qaqortoq,60.7167,-46.0333,-6.58,81,100,2.11,GL,1707364496
46,okeho,8.0333,3.35,23.58,20,9,2.76,NG,1707364496
47,viqueque,-8.8673,126.3658,31.92,58,88,2.55,TL,1707364496
48,whakatane,-37.9585,176.9854,27.16,80,3,2.68,NZ,1707364497
49,oodweyne,9.4092,45.064,17.87,83,21,1.97,SO,1707364497
50,invercargill,-46.4,168.35,13.34,86,57,6.26,NZ,1707364497
51,gilgit,35.9221,74.3087,-5.8,63,1,1.33,PK,1707364497
52,nagqu,31.5,92.0,-4.5,9,0,9.94,CN,1707364497
53,kodiak,57.79,-152.4072,0.73,86,100,2.57,US,1707364497
54,bridlington,54.0831,-0.1919,4.45,86,97,1.34,GB,1707364497
55,petropavlovsk-kamchatsky,53.0452,158.6483,-5.67,80,75,2.0,RU,1707364497
56,kushiro,42.975,144.3747,-1.47,74,75,1.03,JP,1707364404
57,isafjordur,66.0755,-23.124,-8.23,73,1,1.68,IS,1707364498
58,krasnyy chikoy,50.3643,108.7512,-12.3,86,95,0.3,RU,1707364498
59,lebu,-37.6167,-73.65,13.88,77,97,9.37,CL,1707364498
60,avarua,-21.2078,-159.775,28.03,74,40,8.75,CK,1707364498
61,olonkinbyen,70.9221,-8.7187,-2.9,54,79,5.9,SJ,1707364498
62,whitehorse,60.7161,-135.0538,-14.57,81,40,2.57,CA,1707364324
63,waitangi,-43.9535,-176.5597,19.34,84,100,2.04,NZ,1707364252
64,kourou,5.1552,-52.6478,28.03,82,95,3.79,GF,1707364498
65,garbahaarrey,3.3289,42.2209,25.9,67,4,3.15,SO,1707364499
66,dudinka,69.4058,86.1778,-26.85,97,25,1.79,RU,1707364499
67,queenstown,-31.8976,26.8753,12.5,93,48,1.28,ZA,1707364499
68,el bauga,18.262,33.9081,15.02,45,1,3.7,SD,1707364499
69,pelileo,-1.3167,-78.5333,12.65,93,96,1.14,EC,1707364499
70,uturoa,-16.7333,-151.4333,28.57,84,81,11.6,PF,1707364499
71,plastun,44.7561,136.2939,-3.77,47,0,6.97,RU,1707364499
72,bilibino,68.0546,166.4372,-34.76,100,99,0.25,RU,1707364500
73,ribas do rio pardo,-20.4431,-53.7592,22.0,95,100,1.63,BR,1707364500
74,taco pozo,-25.6167,-63.2833,29.02,52,97,3.42,AR,1707364500
75,semikarakorsk,47.5194,40.8112,6.7,83,47,7.48,RU,1707364500
76,margaret river,-33.95,115.0667,26.2,44,0,2.33,AU,1707364500
77,tolanaro,-25.0319,46.9987,24.04,88,40,1.03,MG,1707364500
78,fuglafjordur,62.244,-6.814,-0.74,64,98,9.13,FO,1707364500
79,torres,-29.3353,-49.7269,25.48,95,100,2.93,BR,1707364500
80,bom jesus,-9.0744,-44.3586,24.55,71,76,0.35,BR,1707364500
81,vila franca do campo,37.7167,-25.4333,18.27,99,85,8.6,PT,1707364501
82,hawaiian paradise park,19.5933,-154.9731,22.73,83,100,2.06,US,1707364501
83,albany,42.6001,-73.9662,1.52,70,34,0.7,US,1707364498
84,greymouth,-42.4667,171.2,17.44,65,84,6.66,NZ,1707364501
85,dawson creek,55.7666,-120.2362,-7.2,79,20,0.0,CA,1707364501
86,ribeira grande,38.5167,-28.7,16.54,86,48,9.83,PT,1707364501
87,longyearbyen,78.2186,15.6401,-8.09,73,40,4.63,SJ,1707364501
88,hithadhoo,-0.6,73.0833,27.69,76,85,3.78,MV,1707364501
89,puerto baquerizo moreno,-0.9,-89.6,25.73,82,75,4.81,EC,1707364502
90,santo antonio,-6.3106,-35.4789,24.8,85,100,2.54,BR,1707364502
91,dryden,49.7833,-92.7503,2.16,93,100,4.12,CA,1707364502
92,college,64.8569,-147.8028,-18.85,84,40,1.54,US,1707364502
93,moree,-29.4667,149.85,28.94,49,69,6.04,AU,1707364502
94,ghat,24.9647,10.1728,11.62,24,0,1.91,LY,1707364502
95,east london,-33.0153,27.9116,20.52,60,0,4.63,ZA,1707364503
96,remire-montjoly,4.9167,-52.2667,28.02,78,100,5.14,GF,1707364503
97,neon karlovasion,37.7903,26.7044,17.73,84,100,7.39,GR,1707364503
98,hamilton,39.1834,-84.5333,9.47,54,0,3.6,US,1707364409
99,crane,31.3974,-102.3501,12.82,46,43,3.58,US,1707364503
100,pinarbasi,38.7229,36.3931,-0.17,88,68,2.73,TR,1707364503
101,talsi,57.2456,22.5814,-5.82,97,98,0.28,LV,1707364503
102,minden,52.2833,8.9167,1.37,97,75,1.03,DE,1707364504
103,kitami,43.8031,143.8908,-2.3,65,95,3.21,JP,1707364504
104,babayevo,59.3936,35.9371,-24.34,98,41,2.21,RU,1707364504
105,vire,48.9167,-0.8333,12.66,94,100,6.91,FR,1707364504
106,saipan,15.1355,145.701,29.39,54,0,7.2,MP,1707364504
107,areka,7.0667,37.7,18.01,71,100,2.16,ET,1707364505
108,karratha,-20.7377,116.8463,38.86,18,12,4.01,AU,1707364505
109,kargasok,59.0556,80.8572,-6.69,97,100,3.13,RU,1707364505
110,breves,-1.6822,-50.4803,23.8,96,54,1.57,BR,1707364505
111,papatowai,-46.5619,169.4708,13.65,74,25,8.21,NZ,1707364505
112,fortuna,40.5982,-124.1573,6.48,95,0,0.0,US,1707364505
113,nizhnesortymskiy,62.4397,71.7603,-8.46,93,100,7.2,RU,1707364506
114,mejit,10.2753,170.8646,26.72,81,82,8.4,MH,1707364506
115,aykhal,66.0,111.5,-22.84,97,100,1.86,RU,1707364506
116,oamaru,-45.0784,170.9801,19.65,57,19,5.16,NZ,1707364506
117,kavieng,-2.5744,150.7967,26.77,85,100,12.96,PG,1707364506
118,minas de marcona,-15.2119,-75.1103,19.54,93,100,3.36,PE,1707364506
119,pariaman,-0.619,100.12,31.03,71,99,1.15,ID,1707364506
120,kone,-21.0595,164.8658,24.98,87,100,2.3,NC,1707364506
121,yerofey pavlovich,53.9667,121.9667,-9.65,60,75,0.39,RU,1707364507
122,progreso,21.2833,-89.6667,21.17,77,0,6.0,MX,1707364507
123,hilo,19.7297,-155.09,22.85,82,100,2.06,US,1707364507
124,aldinga beach,-35.2793,138.4604,29.59,41,0,4.34,AU,1707364507
125,la paz,-16.5,-68.15,10.88,76,75,3.6,BO,1707364507
126,crediton,50.7833,-3.65,9.97,97,100,3.88,GB,1707364507
127,selfoss,63.9331,-20.9971,-11.09,82,4,4.97,IS,1707364507
128,fort st. john,56.2499,-120.8529,-8.06,86,100,1.03,CA,1707364508
129,greenville,35.6127,-77.3663,3.09,92,0,0.0,US,1707364499
130,cidade velha,14.9167,-23.6167,23.26,46,0,6.69,CV,1707364508
131,thompson,55.7435,-97.8558,-14.91,85,100,2.06,CA,1707364508
132,jamestown,42.097,-79.2353,2.8,66,0,2.06,US,1707364216
133,tavricheskoye,54.5851,73.6395,-10.05,89,67,7.61,RU,1707364508
134,maryborough,-25.5333,152.7,30.62,48,13,6.22,AU,1707364508
135,taroa,8.7058,171.2275,27.24,80,98,7.99,MH,1707364509
136,amta,22.58,88.0083,20.96,23,11,4.7,IN,1707364509
137,kavaratti,10.5669,72.642,27.94,72,96,2.28,IN,1707364509
138,fort bragg,35.139,-79.006,4.33,71,0,0.0,US,1707364509
139,tiksi,71.6872,128.8694,-20.85,100,100,2.31,RU,1707364509
140,whangarei,-35.7317,174.3239,28.1,45,0,2.1,NZ,1707364378
141,taoudenni,22.6783,-3.9836,16.37,19,41,4.21,ML,1707364509
142,tralee,52.2704,-9.7026,6.02,93,100,7.9,IE,1707364510
143,sejny,54.108,23.347,-3.7,91,17,1.66,PL,1707364510
144,udachny,66.4167,112.4,-25.31,75,99,1.35,RU,1707364510
145,la passe,45.5549,-0.8967,11.66,91,100,4.55,FR,1707364510
146,axim,4.8699,-2.2405,24.98,87,5,1.55,GH,1707364510
147,vilyuchinsk,52.9306,158.4028,-4.85,80,100,0.65,RU,1707364510
148,atbasar,51.8,68.3333,-7.14,89,100,10.1,KZ,1707364510
149,nadym,65.5333,72.5167,-7.28,89,100,7.87,RU,1707364510
150,nova sintra,14.8667,-24.7167,20.91,75,0,7.19,CV,1707364511
151,valparaiso,-33.0393,-71.6273,21.11,73,100,2.06,CL,1707364511
152,burnie,-41.0667,145.9167,19.03,58,1,3.11,AU,1707364511
153,at taj,24.2049,23.2857,9.63,49,0,3.47,LY,1707364511
154,glace bay,46.1969,-59.957,-2.24,88,100,6.17,CA,1707364511
155,isla mujeres,21.2311,-86.731,18.98,60,0,4.82,MX,1707364511
156,pulaski,34.7668,-92.3001,13.42,70,75,2.24,US,1707364512
157,saint-philippe,-21.3585,55.7679,26.77,87,80,6.02,RE,1707364512
158,aasiaat,68.7098,-52.8699,-20.19,97,100,2.57,GL,1707364512
159,stanley,54.868,-1.6985,-1.79,96,0,0.0,GB,1707364512
160,port mathurin,-19.6833,63.4167,26.94,77,83,9.32,MU,1707364512
161,ust-tsilma,65.441,52.1498,-14.1,96,100,3.58,RU,1707364512
162,farah,32.5,62.5,9.73,21,0,1.55,AF,1707364217
163,ar rass,25.8694,43.4973,10.37,31,5,3.94,SA,1707364512
164,kristiansund,63.1115,7.732,-3.64,86,100,1.54,NO,1707364512
165,kayangel,8.0823,134.7173,27.49,69,95,7.05,PW,1707364513
166,villa gesell,-37.2639,-56.973,22.81,95,90,4.37,AR,1707364513
167,rio gallegos,-51.6226,-69.2181,11.03,66,0,13.89,AR,1707364513
168,st. john's,47.5649,-52.7093,-1.79,92,100,7.2,CA,1707364423
169,pestravka,52.405,49.9583,1.5,99,100,8.37,RU,1707364513
170,jati,24.3539,68.2671,20.06,31,97,5.84,PK,1707364513
171,utrik,11.2278,169.8474,26.43,83,100,9.26,MH,1707364513
172,kimbe,-5.5502,150.1429,25.6,95,100,3.99,PG,1707364513
173,west island,-12.1568,96.8225,25.99,94,75,3.09,CC,1707364513
174,coyhaique,-45.5752,-72.0662,11.97,58,100,3.6,CL,1707364514
175,cabo san lucas,22.8909,-109.9124,21.4,64,88,0.89,MX,1707364431
176,huarmey,-10.0681,-78.1522,24.87,83,76,3.09,PE,1707364514
177,mairipora,-23.3186,-46.5867,22.88,100,0,1.03,BR,1707364514
178,ivdel',60.6911,60.4206,-5.54,97,100,2.24,RU,1707364514
179,konarka,19.9,86.1167,23.22,68,49,3.47,IN,1707364514
180,nieuw amsterdam,5.8833,-55.0833,26.09,79,3,4.33,SR,1707364514
181,seydi,39.4816,62.9137,8.38,50,98,2.68,TM,1707364515
182,coquimbo,-29.9533,-71.3436,18.85,88,100,2.06,CL,1707364515
183,happy valley-goose bay,53.3168,-60.3315,-9.83,79,100,1.03,CA,1707364515
184,leava,-14.3,-178.1667,29.3,81,98,8.55,WF,1707364515
185,belyy yar,53.6039,91.3903,-21.06,77,93,0.0,RU,1707364515
186,lihue,21.9789,-159.3672,26.58,73,100,6.69,US,1707364234
187,awjilah,29.1081,21.2869,13.24,36,9,3.17,LY,1707364516
188,ust'-ilimsk,58.0006,102.6619,-7.37,92,100,1.37,RU,1707364292
189,nguigmi,14.2495,13.1092,15.48,30,9,5.69,NE,1707364516
190,kudahuvadhoo,2.6708,72.8944,27.67,71,95,6.91,MV,1707364516
191,geraldton,-28.7667,114.6,42.23,8,0,7.72,AU,1707364511
192,vikhorevka,56.1201,101.1636,-11.23,86,58,1.06,RU,1707364516
193,bikenibeu village,1.3673,173.1241,30.98,74,75,6.17,KI,1707364516
194,jamaame,0.0697,42.745,26.78,82,15,4.66,SO,1707364517
195,mocimboa,-11.3167,40.35,25.48,95,45,3.13,MZ,1707364517
196,quellon,-43.1167,-73.6167,9.6,89,29,1.45,CL,1707364517
197,sechura,-5.5569,-80.8222,26.93,73,63,4.78,PE,1707364517
198,alesund,62.4723,6.1549,-1.92,93,100,4.63,NO,1707364517
199,tura,25.5198,90.2201,19.82,27,0,1.86,IN,1707364517
200,el granada,37.5027,-122.4694,10.99,75,75,9.26,US,1707364517
201,suez,29.9737,32.5263,12.83,66,3,3.38,EG,1707364518
202,bhum,18.4667,75.6667,25.16,36,28,6.04,IN,1707364518
203,labrador city,52.9463,-66.9114,-8.05,86,100,1.54,CA,1707364518
204,alaghsas,17.0187,8.0168,14.33,24,0,3.24,NE,1707364518
205,garoua boulai,5.8833,14.55,18.21,29,18,2.05,CM,1707364518
206,eydhafushi,5.1033,73.0708,27.59,71,100,7.22,MV,1707364518
207,hammerfest,70.6634,23.6821,-11.75,72,100,3.09,NO,1707364518
208,yelizovo,53.1873,158.3805,-4.92,45,75,2.0,RU,1707364518
209,lerwick,60.1545,-1.1494,2.0,60,51,7.39,GB,1707364519
210,nagornyy,52.7959,83.5498,-2.81,94,100,5.98,RU,1707364519
211,tazovsky,67.4667,78.7,-7.22,95,100,5.51,RU,1707364519
212,turkmenbasy,40.0222,52.9552,8.43,66,0,5.14,TM,1707364519
213,san andres,12.5847,-81.7006,26.01,73,40,5.14,CO,1707364519
214,vila velha,-20.3297,-40.2925,25.97,96,20,2.57,BR,1707364519
215,rongelap,11.1635,166.8941,26.38,76,100,8.85,MH,1707364519
216,thanh hoa,19.8,105.7667,17.35,86,100,4.18,VN,1707364519
217,midar,34.9403,-3.5331,8.58,40,56,2.63,MA,1707364520
218,roma,43.2128,-75.4557,2.71,78,75,1.54,US,1707364520
219,sitka,57.0531,-135.33,1.94,75,40,2.06,US,1707364520
220,shetpe,44.1667,52.1167,5.62,78,60,4.8,KZ,1707364520
221,westport,41.1415,-73.3579,2.89,73,40,0.0,US,1707364493
222,birjand,32.8663,59.2211,2.26,27,0,5.14,IR,1707364520
223,midvagur,62.0511,-7.1939,-0.54,80,75,4.63,FO,1707364520
224,zeya,53.75,127.2667,-11.95,72,92,2.44,RU,1707364520
225,qingnian,36.8456,115.7117,5.55,52,90,3.04,CN,1707364521
226,badger,64.8,-147.5333,-18.9,84,40,1.54,US,1707364521
227,talnakh,69.4865,88.3972,-25.71,89,24,1.89,RU,1707364521
228,camana,-16.6228,-72.7111,24.67,86,74,0.97,PE,1707364521
229,ponta delgada,37.7333,-25.6667,18.44,82,75,12.35,PT,1707364521
230,praia da vitoria,38.7333,-27.0667,16.14,77,20,8.56,PT,1707364521
231,fale old settlement,-9.3852,-171.2468,28.14,81,97,7.68,TK,1707364522
232,bonga,7.2833,36.2333,16.33,87,55,0.85,ET,1707364522
233,krasnotur'insk,59.7666,60.2086,-10.63,97,100,2.55,RU,1707364522
234,alofi,-19.0595,-169.9187,30.94,66,75,3.6,NU,1707364522
235,kibre mengist,5.8833,38.9833,14.13,71,82,1.14,ET,1707364522
236,barabai,-2.5833,115.3833,33.14,55,46,1.23,ID,1707364522
237,tofol,5.3248,163.0078,28.17,77,78,8.61,FM,1707364522
238,punta arenas,-53.15,-70.9167,9.06,66,0,13.38,CL,1707364321
239,noumea,-22.2763,166.4572,30.56,99,100,8.03,NC,1707364039
240,ilulissat,69.2167,-51.1,-11.99,67,100,7.72,GL,1707364523
241,ta`u,-14.2336,-169.5144,28.08,83,100,9.1,AS,1707364523
242,cidreira,-30.1811,-50.2056,23.67,91,96,5.17,BR,1707364523
243,the pas,53.8251,-101.2541,-9.99,92,100,2.57,CA,1707364523
244,camabatela,-8.1881,15.375,17.13,89,100,0.94,AO,1707364523
245,puerto ayora,-0.7393,-90.3518,26.98,94,98,1.34,EC,1707364523
246,kapuskasing,49.4169,-82.4331,1.0,93,100,1.54,CA,1707364523
247,preobrazheniye,42.9019,133.9064,-1.73,39,0,2.05,RU,1707364523
248,bamboo flat,11.7,92.7167,28.05,74,30,2.57,IN,1707364524
249,zelenogorsk,56.1147,94.5861,-10.73,94,79,1.14,RU,1707364524
250,padang,-0.9492,100.3543,31.03,69,96,1.5,ID,1707364524
251,port lincoln,-34.7333,135.8667,20.46,58,4,5.28,AU,1707364524
252,dunedin,-45.8742,170.5036,19.33,50,23,5.36,NZ,1707364524
253,urumqi,43.801,87.6005,-15.47,92,75,2.0,CN,1707364524
254,choyr,46.3611,108.3611,-18.51,90,80,1.73,MN,1707364524
255,mitu,1.1983,-70.1733,24.21,88,79,0.39,CO,1707364525
256,luau,-10.7073,22.2247,18.51,99,100,1.2,AO,1707364525
257,codrington,-38.2667,141.9667,19.66,53,0,5.81,AU,1707364525
258,tindouf,27.6711,-8.1474,9.25,27,0,2.06,DZ,1707364526
259,darwin,-12.4611,130.8418,31.99,62,40,2.57,AU,1707364502
260,zyryanovsk,49.7386,84.2719,-9.17,94,100,0.76,KZ,1707364505
261,san luis de la loma,17.2706,-100.8939,24.23,78,0,1.78,MX,1707364526
262,essaouira,31.5125,-9.77,11.72,37,40,1.03,MA,1707364526
263,boyolangu,-8.1181,111.8935,29.35,71,74,2.23,ID,1707364526
264,mugia,43.1041,-9.2179,13.84,92,100,16.82,ES,1707364526
265,walvis bay,-22.9575,14.5053,19.53,82,100,0.0,NA,1707364526
266,svetlyy,54.675,20.1347,0.2,80,75,4.46,RU,1707364527
267,langepas,61.2544,75.2124,-5.95,95,100,6.81,RU,1707364527
268,ha'il,27.5219,41.6907,5.01,52,0,2.06,SA,1707364527
269,vitoria do mearim,-3.4622,-44.8706,23.75,97,21,1.61,BR,1707364527
270,sandnessjoen,66.0217,12.6316,-6.71,57,98,3.52,NO,1707364527
271,nuuk,64.1835,-51.7216,-8.66,73,100,7.72,GL,1707364527
272,watampone,-4.5386,120.3279,28.61,72,100,1.3,ID,1707364528
273,santiago de chuco,-8.15,-78.1833,12.35,91,97,0.61,PE,1707364528
274,wailua homesteads,22.0669,-159.378,26.24,74,100,6.69,US,1707364528
275,nouadhibou,20.931,-17.0347,20.99,43,65,5.14,MR,1707364267
276,karauli,26.5,77.0167,15.25,36,87,3.12,IN,1707364528
277,meadow lakes,61.6247,-149.6011,0.18,73,0,2.57,US,1707364239
278,adamantina,-21.6853,-51.0725,21.84,87,100,1.67,BR,1707364528
279,egilsstadir,65.2653,-14.3948,-5.05,63,75,2.06,IS,1707364528
280,touros,-5.1989,-35.4608,26.65,82,39,4.6,BR,1707364434
281,anadyr,64.75,177.4833,-16.72,85,75,7.0,RU,1707364520
282,hotan,37.0997,79.9269,0.62,46,1,0.89,CN,1707364529
283,tazacorte,28.629,-17.9293,19.53,21,0,4.02,ES,1707364529
284,riohacha,11.5444,-72.9072,24.99,80,98,1.22,CO,1707364529
285,vernon,50.2581,-119.2691,3.2,91,100,0.51,CA,1707364529
286,lazaro cardenas,17.9583,-102.2,24.05,82,17,2.15,MX,1707364529
287,xilin hot,43.9667,116.0333,-14.24,87,25,3.99,CN,1707364530
288,mount isa,-20.7333,139.5,29.87,54,100,4.12,AU,1707364528
289,plymouth,41.8334,-70.8328,-0.75,89,0,0.0,US,1707364530
290,jose maria morelos,23.3952,-103.8984,9.44,40,39,3.01,MX,1707364530
291,ashdod,31.8167,34.65,10.68,86,0,1.03,IL,1707364530
292,newman,37.3138,-121.0208,8.13,92,80,3.85,US,1707364530
293,sur,22.5667,59.5289,22.07,66,100,3.15,OM,1707364530
294,nantucket,41.2835,-70.0995,1.06,80,40,6.78,US,1707364530
295,vadso,70.0744,29.7487,-14.91,85,75,4.12,NO,1707364531
296,sheki,41.1919,47.1706,6.39,56,6,4.5,AZ,1707364531
297,las praderas,-3.3348,-79.7984,25.41,98,100,0.16,EC,1707364531
298,pirallahi,40.4723,50.333,9.08,66,4,14.23,AZ,1707364531
299,forster,-32.1667,152.5167,24.1,71,99,5.96,AU,1707364531
300,mahina,-17.5065,-149.489,27.87,94,75,6.17,PF,1707364531
301,afaahiti,-17.75,-149.2833,26.93,89,100,15.01,PF,1707364531
302,susuman,62.7833,148.1667,-27.79,98,95,0.45,RU,1707364531
303,palikir - national government center,6.9248,158.1611,31.41,70,100,5.14,FM,1707364532
304,ulladulla,-35.35,150.4667,21.92,51,62,3.75,AU,1707364532
305,kununurra,-15.7667,128.7333,32.99,55,100,7.2,AU,1707364532
306,sisimiut,66.9395,-53.6735,-13.85,94,100,6.39,GL,1707364532
307,maintirano,-18.0667,44.0167,26.01,87,100,3.8,MG,1707364532
308,belmonte,-15.8631,-38.8828,25.68,86,96,2.77,BR,1707364532
309,gamba,-2.65,10.0,25.69,88,100,1.95,GA,1707364532
310,linxia chengguanzhen,35.6003,103.2064,-0.62,59,14,1.33,CN,1707364532
311,brush,40.2589,-103.6238,4.62,100,100,2.06,US,1707363663
312,cedral,23.8,-100.7333,17.84,19,54,3.68,MX,1707364533
313,christchurch,-43.5333,172.6333,21.62,63,100,5.14,NZ,1707364319
314,deniliquin,-35.5333,144.9667,31.62,26,0,2.02,AU,1707364533
315,normal,40.5142,-88.9906,7.19,89,0,6.26,US,1707364275
316,kidal,18.4411,1.4078,15.37,15,3,4.7,ML,1707364533
317,mweka,-4.85,21.5667,20.15,90,100,0.68,CD,1707364534
318,ouadda,8.0777,22.4007,18.03,28,77,2.16,CF,1707364534
319,zhangzhou,24.5133,117.6556,10.96,88,100,1.48,CN,1707364534
320,valday,57.9747,33.2525,-15.54,96,100,1.79,RU,1707364534
321,pomorie,42.5588,27.6439,10.24,81,100,4.63,BG,1707364534
322,bloemfontein,-29.1211,26.214,14.71,67,0,0.51,ZA,1707364534
323,grand baie,-20.0182,57.5802,27.47,83,78,3.13,MU,1707364534
324,kingscliff,-28.2667,153.5667,29.29,70,100,6.17,AU,1707364535
325,magdagachi,53.45,125.8,-9.83,64,6,3.87,RU,1707364535
326,hardeeville,32.2871,-81.0807,5.53,78,2,0.68,US,1707364535
327,juneau,58.3019,-134.4197,-3.28,95,20,0.0,US,1707364535
328,priozersk,61.0393,30.1291,-9.39,77,100,3.14,RU,1707364536
329,nova vicosa,-17.8919,-39.3719,25.33,87,100,1.98,BR,1707364536
330,al kharijah,25.4514,30.5464,11.79,52,0,3.02,EG,1707364536
331,las tablas,7.7667,-80.2833,23.43,99,64,7.39,PA,1707364536
332,constantia,44.1833,28.65,6.5,75,100,3.59,RO,1707364536
333,ginir,7.1333,40.7,15.0,60,65,0.59,ET,1707364536
334,atafu village,-8.5421,-172.5159,28.66,78,100,7.52,TK,1707364526
335,banda aceh,5.5577,95.3222,29.53,67,62,4.96,ID,1707364537
336,nushki,29.5542,66.0215,12.66,26,0,1.61,PK,1707364537
337,rio grande,-32.035,-52.0986,22.75,84,45,6.04,BR,1707364391
338,chilliwack,49.1747,-121.9443,6.17,86,78,0.51,CA,1707364537
339,zhongshu,24.5167,103.7667,15.07,53,16,4.02,CN,1707364537
340,anna regina,7.2644,-58.5077,26.24,81,4,5.11,GY,1707364537
341,yuzhno-kurilsk,44.0306,145.8556,-3.02,71,100,4.69,RU,1707364525
342,cockburn town,21.4612,-71.1419,22.99,73,11,7.75,TC,1707364537
343,canto do buriti,-8.11,-42.9444,24.66,68,47,1.15,BR,1707364538
344,port augusta,-32.5,137.7667,30.81,21,1,6.14,AU,1707364538
345,gela,37.0803,14.2307,10.32,84,2,5.22,IT,1707364538
346,statesboro,32.4488,-81.7832,7.49,93,0,0.0,US,1707364538
347,nichinan,31.6,131.3667,10.82,59,100,1.98,JP,1707364384
348,posto fiscal rolim de moura,-13.0833,-62.2667,22.84,92,100,1.21,BR,1707364538
349,karagandy,49.8019,73.1021,-6.03,84,98,11.76,KZ,1707364538
350,morondava,-20.2833,44.2833,26.03,87,6,2.91,MG,1707364538
351,ploneour-lanvern,47.9,-4.2833,12.18,94,100,9.26,FR,1707364538
352,cole harbour,44.6724,-63.4751,-2.94,83,99,1.79,CA,1707364539
353,anahuac,27.2333,-100.15,18.95,62,89,9.22,MX,1707364539
354,son la,21.3167,103.9,25.76,40,13,0.96,VN,1707364539
355,horta,38.5333,-28.6333,16.12,86,56,9.83,PT,1707364539
356,iskateley,67.6803,53.1512,-17.21,96,100,5.81,RU,1707364539
357,chonchi,-42.6128,-73.8092,10.73,97,44,0.85,CL,1707364539
358,torghay,49.6339,63.4981,-6.77,81,58,9.51,KZ,1707364539
359,dubbo,-32.25,148.6167,23.07,56,100,6.69,AU,1707364540
360,katsuren-haebaru,26.3369,127.8719,18.43,79,100,7.2,JP,1707364540
361,sault ste. marie,46.5168,-84.3333,1.31,89,0,4.12,CA,1707364483
362,new norfolk,-42.7826,147.0587,24.28,26,1,0.38,AU,1707364540
363,aioun,16.6614,-9.6149,21.01,10,100,4.74,MR,1707364540
364,guarapari,-20.6667,-40.4975,24.94,92,100,2.7,BR,1707364541
365,thunder bay,48.4001,-89.3168,0.99,100,100,6.69,CA,1707364317
366,amga,60.8953,131.9608,-28.72,93,100,1.36,RU,1707364541
367,suhbaatar,50.2314,106.2078,-19.46,92,88,1.96,MN,1707364541
368,impfondo,1.6381,18.0667,22.03,49,58,0.99,CG,1707364541
369,"laikit, laikit ii (dimembe)",1.4792,124.9735,29.47,70,40,2.57,ID,1707364541
370,strugi-krasnyye,58.2675,29.1114,-15.35,98,94,1.6,RU,1707364542
371,bardai,11.65,7.2333,14.76,22,5,4.61,NG,1707364542
372,itoman,26.1247,127.6694,18.43,85,75,7.2,JP,1707364542
373,al bawiti,28.3492,28.8659,11.06,62,0,1.93,EG,1707364542
374,arraial do cabo,-22.9661,-42.0278,23.98,94,20,0.0,BR,1707364542
375,kashkhatau,43.3185,43.608,5.31,45,93,4.22,RU,1707364542
376,ondjiva,-17.0667,15.7333,22.02,94,0,1.03,AO,1707364542
377,port saint john's,-31.6229,29.5448,20.04,78,11,1.94,ZA,1707364543
378,flying fish cove,-10.4217,105.6791,28.82,78,75,3.6,CX,1707364543
379,privolzhskiy,51.4,46.0333,3.5,51,100,8.73,RU,1707364543
380,carauari,-4.8828,-66.8958,23.58,97,100,0.5,BR,1707364543
381,bay minette,30.883,-87.773,10.9,69,100,2.23,US,1707364543
382,goz beida,13.95,20.55,17.37,23,76,3.23,TD,1707364543
383,campeni,46.3667,23.05,6.31,93,100,3.7,RO,1707364543
384,gaiman,-43.2897,-65.4929,20.02,25,80,4.95,AR,1707364543
385,porto-vecchio,41.591,9.2795,11.81,82,75,6.17,FR,1707364543
386,yeosu,34.7546,127.6599,6.64,42,91,1.39,KR,1707364544
387,tateyama,34.9833,139.8667,9.05,67,87,4.26,JP,1707364345
388,cartagena del chaira,1.3349,-74.8429,23.03,96,61,0.27,CO,1707364544
389,angaur state,6.906,134.13,27.61,74,45,8.01,PW,1707364544
390,sailana,23.4667,74.9167,16.44,36,100,7.27,IN,1707364544
391,pisco,-13.7,-76.2167,24.03,88,0,5.14,PE,1707364544
392,parabel',58.6978,81.4825,-5.61,88,100,3.58,RU,1707364544
393,wenling,28.3669,121.36,5.21,79,100,4.33,CN,1707364544
394,gadzhiyevo,69.2551,33.3362,-23.96,100,93,3.51,RU,1707364544
395,baxter,46.3433,-94.2867,8.18,61,100,5.14,US,1707364545
396,drayton valley,53.2168,-114.9854,-7.52,98,100,0.29,CA,1707364545
397,agat village,13.3886,144.6585,31.52,62,20,7.72,GU,1707364545
398,sambuca di sicilia,37.6494,13.1109,10.64,94,31,1.63,IT,1707364545
399,huanan,46.2167,130.5167,-9.54,86,92,5.69,CN,1707364545
400,el calafate,-50.3408,-72.2768,7.75,85,53,5.9,AR,1707364545
401,dubovka,49.0583,44.829,3.53,87,98,9.53,RU,1707364545
402,magadan,59.5667,150.8,-17.85,80,12,1.46,RU,1707364546
403,tromso,69.6496,18.957,-8.99,67,100,4.12,NO,1707364546
404,howard springs,-12.497,131.047,31.95,78,84,2.28,AU,1707364546
405,wellston,39.1234,-82.5329,5.38,69,98,1.55,US,1707364546
406,arafat,21.3594,39.9664,20.94,73,44,0.37,SA,1707364546
407,menongue,-14.6585,17.691,16.8,97,100,0.51,AO,1707364546
408,howrah,22.5892,88.3103,21.0,43,13,5.66,IN,1707364546
409,tamiahua,21.2667,-97.45,19.06,84,1,4.96,MX,1707364546
410,mlimba,-8.8,35.8167,21.62,94,66,1.12,TZ,1707364547
411,faya-largeau,17.9257,19.1043,14.03,31,22,6.39,TD,1707364547
412,lorengau,-2.0226,147.2712,28.03,79,100,8.43,PG,1707364547
413,sungai raya,0.7,108.9,30.68,66,68,1.97,ID,1707364547
414,fortaleza,-3.7227,-38.5247,29.07,79,40,5.14,BR,1707364547
415,winder,33.9926,-83.7202,7.06,76,0,0.0,US,1707364547
416,ambovombe,-25.1667,46.0833,23.22,80,0,0.38,MG,1707364547
417,vorgashor,67.5833,63.95,-5.87,86,100,5.91,RU,1707364547
418,dosso,13.049,3.1937,17.81,19,2,4.48,NE,1707364547
419,usman',52.0466,39.7288,-0.98,83,88,7.58,RU,1707364548
420,vlore,40.4667,19.4897,11.65,72,100,4.43,AL,1707364548
421,mogocha,53.7333,119.7667,-10.34,71,24,0.35,RU,1707364548
422,saldanha,-33.0117,17.9442,17.03,85,13,3.75,ZA,1707364548
423,hafnarfjordur,64.0671,-21.9377,-3.79,73,0,1.54,IS,1707364548
424,tyukhtet,56.5389,89.3011,-9.47,83,58,4.32,RU,1707364548
425,jiuquan,39.7432,98.5174,-0.86,37,80,1.38,CN,1707364548
426,taltal,-25.4,-70.4833,21.26,83,29,1.13,CL,1707364549
427,mata-utu,-13.2816,-176.1745,28.67,82,100,9.04,WF,1707364549
428,moyynkum,44.2914,72.9469,-1.31,98,100,4.46,KZ,1707364549
429,san felipe,10.3399,-68.7425,23.07,97,88,1.53,VE,1707364549
430,glendive,47.1053,-104.7125,-0.21,100,100,2.06,US,1707364549
431,nadi,-17.8,177.4167,28.0,78,75,2.06,FJ,1707364549
432,sena madureira,-9.0656,-68.6569,24.1,92,88,1.06,BR,1707364549
433,aoulef,26.9667,1.0833,14.46,26,33,4.45,DZ,1707364549
434,elista,46.3078,44.2558,6.29,75,8,10.0,RU,1707364550
435,severo-yeniseyskiy,60.3725,93.0408,-8.46,97,98,0.71,RU,1707364550
436,olyokminsk,60.3736,120.4264,-24.77,94,98,0.61,RU,1707364550
437,simrishamn,55.5565,14.3504,0.75,98,100,8.64,SE,1707364550
438,rizhao,35.4275,119.4553,2.61,45,100,1.26,CN,1707364550
439,inyonga,-6.7167,32.0667,17.23,95,6,1.15,TZ,1707364550
440,alice springs,-23.7,133.8833,34.01,14,11,7.72,AU,1707364550
441,mariehamn,60.0973,19.9348,-4.54,93,100,1.03,AX,1707364550
442,carnarvon,-24.8667,113.6333,32.75,42,0,3.28,AU,1707364550
443,durango,24.8333,-104.8333,10.31,43,4,3.05,MX,1707364551
444,pasuquin,18.3328,120.6177,28.97,70,20,2.57,PH,1707364551
445,san pedro,14.35,121.0167,30.2,66,40,3.6,PH,1707364416
446,guerrero negro,27.9769,-114.0611,15.1,65,2,4.15,MX,1707364551
447,bukittinggi,-0.3091,100.3706,24.8,75,96,0.6,ID,1707364551
448,pangkalanbuun,-2.6833,111.6167,33.62,50,63,1.8,ID,1707364377
449,boali,4.8005,18.1275,23.04,33,22,1.64,CF,1707364551
450,dumka,24.2667,87.25,20.84,22,11,5.94,IN,1707364551
451,mueang nonthaburi,13.8608,100.5148,35.55,61,20,4.63,TH,1707364551
452,gaalkacyo,6.7697,47.4308,21.63,79,50,5.46,SO,1707364552
453,roccella ionica,38.322,16.4009,13.52,81,13,5.71,IT,1707364552
454,jitra,6.2681,100.4217,30.94,58,20,3.13,MY,1707364552
455,euclides da cunha,-10.5075,-39.0158,22.51,86,100,3.34,BR,1707364552
456,hailin,44.5833,129.4167,-9.62,78,15,1.74,CN,1707364552
457,khanty-mansiysk,61.0042,69.0019,-4.94,93,75,4.02,RU,1707364552
458,nar'yan-mar,67.6713,53.087,-17.16,96,100,5.81,RU,1707364552
459,namibe,-15.1961,12.1522,25.18,77,99,3.82,AO,1707364552
460,hadibu,12.65,54.0333,25.69,68,100,5.81,YE,1707364527
461,alamos,27.0167,-108.9333,13.69,57,1,1.44,MX,1707364553
462,sao miguel do araguaia,-13.275,-50.1628,24.13,83,65,1.84,BR,1707364553
463,chandbali,20.7833,86.7667,24.96,56,0,4.94,IN,1707364553
464,ciudad lazaro cardenas,17.9583,-102.2,24.05,82,17,2.15,MX,1707364540
465,nyurba,63.2842,118.3319,-29.3,99,100,1.46,RU,1707364553
466,rio vista,38.1558,-121.6913,9.56,86,66,3.23,US,1707364553
467,sadovoye,47.7764,44.5089,5.04,83,62,9.35,RU,1707364553
468,padre bernardo,-15.35,-48.5,20.64,92,100,0.65,BR,1707364554
469,panama city beach,30.1766,-85.8055,10.06,76,0,1.54,US,1707364379
470,lisala,2.15,21.5167,20.68,45,56,0.74,CD,1707364554
471,chibougamau,49.9168,-74.3659,-2.21,93,100,2.06,CA,1707364554
472,karkira,36.9292,6.5856,11.25,72,5,4.21,DZ,1707364554
473,crotone,39.0851,17.1178,12.12,59,15,1.63,IT,1707364554
474,meizhou,24.2977,116.1072,12.48,70,92,1.95,CN,1707364554
475,aketi,2.7388,23.7833,18.64,51,6,0.76,CD,1707364554
476,vorkuta,67.5,64.0,-6.45,88,100,5.01,RU,1707364526
477,kudymkar,59.0173,54.656,-8.93,96,100,3.74,RU,1707364555
478,kangaba,11.9333,-8.4167,22.89,13,61,2.63,ML,1707364555
479,aldama,22.9167,-98.0667,20.21,88,40,1.59,MX,1707364555
480,saint-leu,-21.15,55.2833,26.48,77,86,0.96,RE,1707364555
481,nemuro,43.3236,145.575,-2.48,74,67,4.39,JP,1707364555
482,doka,13.5167,35.7667,20.5,31,33,3.91,SD,1707364555
483,mwinilunga,-11.7358,24.4293,15.55,94,77,0.19,ZM,1707364555
484,trairi,-3.2778,-39.2689,27.4,78,74,4.55,BR,1707364426
485,khandyga,62.6667,135.6,-34.45,93,74,0.05,RU,1707364556
486,zhalantun,48.0,122.7167,-8.01,66,55,2.1,CN,1707364556
487,flin flon,54.7682,-101.865,-9.71,95,100,2.75,CA,1707364556
488,manicore,-5.8092,-61.3003,23.7,98,99,0.4,BR,1707364544
489,la huaca,-4.9117,-80.96,27.53,70,86,3.75,PE,1707364556
490,swainsboro,32.5974,-82.3337,4.94,87,0,0.0,US,1707364556
491,ebon,4.582,168.6964,28.44,77,69,9.12,MH,1707364557
492,kuacjok,8.3002,27.9903,20.84,24,36,2.39,SS,1707364557
493,ancud,-41.8697,-73.8203,10.16,85,83,3.13,CL,1707364557
494,portland,45.5234,-122.6762,7.56,87,75,2.06,US,1707364310
495,antofagasta,-23.65,-70.4,22.6,80,35,1.81,CL,1707364551
496,kirakira,-10.4544,161.9205,29.98,75,100,7.9,SB,1707364557
497,sierpc,52.8568,19.6691,-2.25,86,100,3.44,PL,1707364557
498,valjevo,44.2751,19.8982,9.33,78,58,2.67,RS,1707364558
499,palmares do sul,-30.2578,-50.5097,23.18,91,84,4.52,BR,1707364558
500,benguela,-12.5763,13.4055,26.92,79,100,1.32,AO,1707364558
501,jinghong,21.991,100.7341,28.16,28,0,0.74,CN,1707364558
502,bam,29.106,58.357,11.11,26,0,2.36,IR,1707364558
503,tarawa,1.419,172.984,31.05,74,75,6.17,KI,1707364558
504,swan hill,-35.3378,143.5544,30.86,24,0,1.92,AU,1707364289
505,shancheng,34.7953,116.0817,4.2,59,65,1.68,CN,1707364558
506,quitilipi,-26.8691,-60.2168,28.1,54,23,2.62,AR,1707364558
507,balabac,7.9868,117.0645,28.38,72,37,4.77,PH,1707364559
508,tucurui,-3.7661,-49.6725,23.0,98,63,1.39,BR,1707364559
509,zhangye,38.9342,100.4517,-1.58,43,4,3.95,CN,1707364559
510,lensk,60.7253,114.9278,-21.69,93,61,0.36,RU,1707364559
511,mosjoen,65.836,13.1908,-6.71,100,100,1.03,NO,1707364559
512,taunggyi,20.7833,97.0333,24.38,26,0,1.67,MM,1707364559
513,fukuecho,32.6881,128.8419,11.2,62,75,5.66,JP,1707364559
514,north battleford,52.7834,-108.2847,-5.33,93,100,2.57,CA,1707364560
515,okhotsk,59.3833,143.3,-18.96,79,88,4.32,RU,1707364560
516,arteche,12.2645,125.4048,26.28,81,53,3.16,PH,1707364560
517,chiras,35.4167,65.9823,-8.04,57,17,4.19,AF,1707364560
518,kitee,62.1,30.15,-18.77,98,33,1.98,FI,1707364560
519,tra mhor,52.1624,-7.1524,5.9,76,100,5.36,IE,1707364560
520,tsiombe,-25.3,45.4833,23.39,81,2,1.31,MG,1707364560
521,mar''ina horka,53.509,28.147,-4.88,79,66,3.1,BY,1707364560
522,lagunas,-5.2269,-75.6753,24.02,91,54,0.7,PE,1707364561
523,segezha,63.7415,34.3222,-25.49,100,94,2.81,RU,1707364561
524,puerto deseado,-47.7503,-65.8938,12.73,60,1,5.26,AR,1707364561
525,kapa'a,22.0752,-159.319,26.99,73,100,6.69,US,1707364558
526,kirkwood,38.5834,-90.4068,10.78,68,100,4.63,US,1707364374
527,laguna,38.421,-121.4238,8.36,91,100,4.12,US,1707364511
528,broken hill,-31.95,141.4333,30.9,23,34,6.67,AU,1707364307
529,kismayo,-0.3582,42.5454,27.2,83,23,6.29,SO,1707364562
530,birganj,27.0104,84.8774,15.93,36,1,2.84,NP,1707364562
531,baruun-urt,46.6806,113.2792,-19.39,95,98,4.84,MN,1707364562
532,bandarbeyla,9.4942,50.8122,24.65,73,83,5.96,SO,1707364562
533,ziro,27.6333,93.8333,3.41,85,99,0.45,IN,1707364562
534,terrace,54.5163,-128.6035,-0.05,74,100,3.09,CA,1707364562
535,kolondieba,11.0882,-6.8926,22.99,15,3,2.84,ML,1707364562
536,lobujya,27.95,86.8167,-11.7,31,0,2.62,NP,1707364563
537,la ronge,55.1001,-105.2842,-8.86,86,100,3.09,CA,1707364543
538,molde,62.7375,7.1591,-8.09,93,100,3.09,NO,1707364563
539,rabo de peixe,37.8,-25.5833,17.77,99,75,12.35,PT,1707364563
540,miracema do tocantins,-9.5618,-48.3967,24.34,88,98,0.42,BR,1707364563
541,muang phonsavan,19.45,103.2167,28.44,19,0,2.0,LA,1707364563
542,viseu,40.661,-7.9097,8.88,93,100,2.76,PT,1707364563
543,tarauaca,-8.1614,-70.7656,23.74,90,56,0.92,BR,1707364563
544,tabriz,38.08,46.2919,-1.3,80,0,2.06,IR,1707364563
545,kaltan,53.5347,87.2457,-8.44,85,98,1.81,RU,1707364564
546,llallagua,-18.4167,-66.6333,8.08,72,100,1.06,BO,1707364564
547,papao,-17.75,-149.55,27.82,91,100,16.75,PF,1707364564
548,balykshi,47.0667,51.8667,3.0,93,40,8.0,KZ,1707364564
549,lourdes,43.1,-0.05,10.71,71,100,2.57,FR,1707364564
550,sola,-13.8833,167.55,33.37,62,75,2.57,VU,1707364564
551,qoryooley,1.7878,44.53,25.63,80,7,5.66,SO,1707364564
552,puerto armuelles,8.2833,-82.8667,28.99,64,53,3.13,PA,1707364565
553,darlowo,54.421,16.4107,0.67,77,22,4.6,PL,1707364565
554,murun-kuren,49.6342,100.1625,-17.16,79,9,1.56,MN,1707364565
555,valle de la pascua,9.2155,-66.0073,26.96,74,94,2.7,VE,1707364565
556,port shepstone,-30.7414,30.455,22.48,78,90,3.44,ZA,1707364565
557,constitucion,-35.3333,-72.4167,16.49,66,1,5.46,CL,1707364565
558,santyoku,37.4406,129.1708,4.7,58,1,1.62,KR,1707364565
559,floro,61.5996,5.0328,-3.02,80,40,4.63,NO,1707364565
560,sovetskaya gavan',48.9723,140.2878,-10.5,71,100,2.54,RU,1707364566
561,soe,-9.8607,124.284,26.49,66,84,3.66,ID,1707364566
